{
"type": "FeatureCollection",
"crs": { "type": "name", "properties": { "name": "urn:ogc:def:crs:OGC:1.3:CRS84" } },
"features": [
{ "type": "Feature", "properties": { "name": "EmblemHealth Neighborhood Care", "category": "community_center", "address": "4771 Hylan Blvd", "city": "New York", "zip": "10312", "state": "NY", "confidence": 0.98 }, "geometry": { "type": "Point", "coordinates": [ -74.1661644, 40.5288273 ] } },
{ "type": "Feature", "properties": { "name": "Jewish Staten Island - Oorah", "category": "community_center", "address": "374 Ridgewood Ave", "city": "New York", "zip": "10312", "state": "NY", "confidence": 0.95 }, "geometry": { "type": "Point", "coordinates": [ -74.16568, 40.556889 ] } },
{ "type": "Feature", "properties": { "name": "EmblemHealth", "category": "community_center", "address": "2655 Richmond Ave", "city": "Staten Island", "zip": "10314", "state": "NY", "confidence": 0.89 }, "geometry": { "type": "Point", "coordinates": [ -74.166382, 40.581239 ] } },
{ "type": "Feature", "properties": { "name": "Chabad Israel Center of Staten Island", "category": "community_center", "address": "44 Brunswick St", "city": "Staten Island", "zip": "10314", "state": "NY", "confidence": 0.99 }, "geometry": { "type": "Point", "coordinates": [ -74.1586258, 40.5839583 ] } },
{ "type": "Feature", "properties": { "name": "JCC Cornerstone Todt Hill", "category": "community_center", "address": "255 Westwood Ave", "city": "New York", "zip": "10314", "state": "NY", "confidence": 0.98 }, "geometry": { "type": "Point", "coordinates": [ -74.1192431, 40.6069646 ] } },
{ "type": "Feature", "properties": { "name": "EmblemHealth Neighborhood Care", "category": "community_center", "address": "1050 Clove Rd", "city": "New York", "zip": "10301", "state": "NY", "confidence": 0.98 }, "geometry": { "type": "Point", "coordinates": [ -74.1087087, 40.6197051 ] } },
{ "type": "Feature", "properties": { "name": "Al Noorani Islamic Center", "category": "community_center", "address": "625 South Ave", "city": "New York", "zip": "10303", "state": "NY", "confidence": 0.92 }, "geometry": { "type": "Point", "coordinates": [ -74.1672635, 40.6234481 ] } },
{ "type": "Feature", "properties": { "name": "Jewish Community Center Of Staten Island", "category": "community_center", "address": "475 Victory Blvd", "city": "Staten Island", "zip": "10301", "state": "NY", "confidence": 0.83 }, "geometry": { "type": "Point", "coordinates": [ -74.088692, 40.630951 ] } },
{ "type": "Feature", "properties": { "name": "Shorefront Y", "category": "community_center", "address": "3300 Coney Island Ave", "city": "New York", "zip": "11235", "state": "NY", "confidence": 0.97 }, "geometry": { "type": "Point", "coordinates": [ -73.9599527, 40.5757097 ] } },
{ "type": "Feature", "properties": { "name": "Shorefront Jewish Community Council", "category": "community_center", "address": "128 Brighton Beach Ave", "city": "Brooklyn", "zip": "11235", "state": "NY", "confidence": 0.89 }, "geometry": { "type": "Point", "coordinates": [ -73.967143, 40.576178 ] } },
{ "type": "Feature", "properties": { "name": "Circle of Friends Brooklyn Adult Day Care Center", "category": "community_center", "address": "18 Brighton 11th St", "city": "New York", "zip": "11235", "state": "NY", "confidence": 0.92 }, "geometry": { "type": "Point", "coordinates": [ -73.956376, 40.5820668 ] } },
{ "type": "Feature", "properties": { "name": "KINGS BAY Y", "category": "community_center", "address": "3495 Nostrand Ave", "city": "Brooklyn", "zip": "11229", "state": "NY", "confidence": 0.96 }, "geometry": { "type": "Point", "coordinates": [ -73.941244, 40.598788 ] } },
{ "type": "Feature", "properties": { "name": "The Center SCC", "category": "community_center", "address": "1901 Ocean Pkwy", "city": "New York", "zip": "11223", "state": "NY", "confidence": 0.99 }, "geometry": { "type": "Point", "coordinates": [ -73.96581, 40.60228 ] } },
{ "type": "Feature", "properties": { "name": "Av N Jewish Community Cntr", "category": "community_center", "address": "321 Avenue N", "city": "Brooklyn", "zip": "11230", "state": "NY", "confidence": 0.89 }, "geometry": { "type": "Point", "coordinates": [ -73.97118, 40.61447 ] } },
{ "type": "Feature", "properties": { "name": "East Midwood Jewish Center", "category": "community_center", "address": "1625 Ocean Ave", "city": "Brooklyn", "zip": "11230", "state": "NY", "confidence": 1.0 }, "geometry": { "type": "Point", "coordinates": [ -73.955385, 40.622323 ] } },
{ "type": "Feature", "properties": { "name": "Gorsky Kavkazi Jews of NY", "category": "community_center", "address": "347 Ocean Pkwy", "city": "New York", "zip": "11218", "state": "NY", "confidence": 0.96 }, "geometry": { "type": "Point", "coordinates": [ -73.973042, 40.64065 ] } },
{ "type": "Feature", "properties": { "name": "Chabad of Windsor Terrace", "category": "community_center", "address": "1266 Prospect Ave", "city": "Brooklyn", "zip": "11218", "state": "NY", "confidence": 0.99 }, "geometry": { "type": "Point", "coordinates": [ -73.9762574, 40.6526126 ] } },
{ "type": "Feature", "properties": { "name": "St Jude Community Center", "category": "community_center", "address": "409 Maple St", "city": "Brooklyn", "zip": "11225", "state": "NY", "confidence": 0.98 }, "geometry": { "type": "Point", "coordinates": [ -73.947165, 40.661284 ] } },
{ "type": "Feature", "properties": { "name": "Jccgci Coney Island Seaside Older Adult Center", "category": "community_center", "address": "3001 W 37th St", "city": "Brooklyn", "zip": "11224", "state": "NY", "confidence": 0.97 }, "geometry": { "type": "Point", "coordinates": [ -74.00227, 40.57273 ] } },
{ "type": "Feature", "properties": { "name": "EmblemHealth Neighborhood Care", "category": "community_center", "address": "2482 86th St", "city": "New York", "zip": "11214", "state": "NY", "confidence": 0.99 }, "geometry": { "type": "Point", "coordinates": [ -73.9875324, 40.5978674 ] } },
{ "type": "Feature", "properties": { "name": "Marks JCH", "category": "community_center", "address": "7802 Bay Pkwy", "city": "New York", "zip": "11214", "state": "NY", "confidence": 0.9 }, "geometry": { "type": "Point", "coordinates": [ -73.989738, 40.606377 ] } },
{ "type": "Feature", "properties": { "name": "Fort Hamilton Community Club", "category": "community_center", "address": "207 Sterling Dr", "city": "New York", "zip": "11252", "state": "NY", "confidence": 0.97 }, "geometry": { "type": "Point", "coordinates": [ -74.0327796, 40.6090122 ] } },
{ "type": "Feature", "properties": { "name": "New Lane Senior Center", "category": "community_center", "address": "70 New Ln", "city": "Staten Island", "zip": "10305", "state": "NY", "confidence": 0.93 }, "geometry": { "type": "Point", "coordinates": [ -74.061943, 40.612895 ] } },
{ "type": "Feature", "properties": { "name": "JCC Cornerstone Gerard Carter Center", "category": "community_center", "address": "230 Broad St", "city": "New York", "zip": "10304", "state": "NY", "confidence": 0.98 }, "geometry": { "type": "Point", "coordinates": [ -74.08168, 40.62349 ] } },
{ "type": "Feature", "properties": { "name": "St George Community Center", "category": "community_center", "address": "6209 11th Ave", "city": "New York", "zip": "11219", "state": "NY", "confidence": 1.0 }, "geometry": { "type": "Point", "coordinates": [ -74.0042577, 40.6298285 ] } },
{ "type": "Feature", "properties": { "name": "Chabad Air", "category": "community_center", "address": "4 Ferry Terminal Dr", "city": "New York", "zip": "10301", "state": "NY", "confidence": 0.89 }, "geometry": { "type": "Point", "coordinates": [ -74.0724772, 40.643524 ] } },
{ "type": "Feature", "properties": { "name": "Young Israel of Sunnyside", "category": "community_center", "address": "43 46th St", "city": "New York", "zip": "11220", "state": "NY", "confidence": 0.97 }, "geometry": { "type": "Point", "coordinates": [ -74.0140685, 40.6511716 ] } },
{ "type": "Feature", "properties": { "name": "Joseph Miccio Cornerstone Community Center", "category": "community_center", "address": "110 W 9th St", "city": "Brooklyn", "zip": "11231", "state": "NY", "confidence": 0.97 }, "geometry": { "type": "Point", "coordinates": [ -74.0023559, 40.6755871 ] } },
{ "type": "Feature", "properties": { "name": "Richmond Terrace Community Center", "category": "community_center", "address": "71 Jersey St", "city": "New York", "zip": "10301", "state": "NY", "confidence": 0.84 }, "geometry": { "type": "Point", "coordinates": [ -74.0880855, 40.6459566 ] } },
{ "type": "Feature", "properties": { "name": "Regency event venue and community space", "category": "community_center", "address": "22 Commerce St", "city": "New York", "zip": "11231", "state": "NY", "confidence": 0.98 }, "geometry": { "type": "Point", "coordinates": [ -74.00626, 40.67963 ] } },
{ "type": "Feature", "properties": { "name": "Ingersoll Community Center", "category": "community_center", "address": "177 Myrtle Ave", "city": "Brooklyn", "zip": "11201", "state": "NY", "confidence": 0.91 }, "geometry": { "type": "Point", "coordinates": [ -73.982002, 40.693769 ] } },
{ "type": "Feature", "properties": { "name": "EmblemHealth Neighborhood Care", "category": "community_center", "address": "195 Montague St", "city": "New York", "zip": "11201", "state": "NY", "confidence": 0.98 }, "geometry": { "type": "Point", "coordinates": [ -73.9913244, 40.6942583 ] } },
{ "type": "Feature", "properties": { "name": "Fulton Street Market", "category": "community_center", "address": null, "city": null, "zip": null, "state": null, "confidence": 0.8 }, "geometry": { "type": "Point", "coordinates": [ -74.0034879, 40.7069359 ] } },
{ "type": "Feature", "properties": { "name": "EmblemHealth Neighborhood Care", "category": "community_center", "address": "52 Duane St", "city": "New York", "zip": "10007", "state": "NY", "confidence": 0.97 }, "geometry": { "type": "Point", "coordinates": [ -74.00399, 40.71423 ] } },
{ "type": "Feature", "properties": { "name": "Chabad Of Tribeca", "category": "community_center", "address": "54 Reade St", "city": "New York", "zip": "10007", "state": "NY", "confidence": 0.99 }, "geometry": { "type": "Point", "coordinates": [ -74.006048, 40.714902 ] } },
{ "type": "Feature", "properties": { "name": "NY Federal Plaza -FBI HQ", "category": "community_center", "address": null, "city": null, "zip": null, "state": null, "confidence": 0.88 }, "geometry": { "type": "Point", "coordinates": [ -74.0055121, 40.7150106 ] } },
{ "type": "Feature", "properties": { "name": "Children's Magical Garden", "category": "community_center", "address": "129 Stanton St", "city": "New York", "zip": "10002", "state": "NY", "confidence": 0.98 }, "geometry": { "type": "Point", "coordinates": [ -73.986681, 40.720767 ] } },
{ "type": "Feature", "properties": { "name": "Cardinal Spellman Center", "category": "community_center", "address": "137 E 2nd St", "city": "New York", "zip": "10009", "state": "NY", "confidence": 0.96 }, "geometry": { "type": "Point", "coordinates": [ -73.98629, 40.72311 ] } },
{ "type": "Feature", "properties": { "name": "Chabad of Greenpoint", "category": "community_center", "address": "48 India St", "city": "New York", "zip": "11222", "state": "NY", "confidence": 0.98 }, "geometry": { "type": "Point", "coordinates": [ -73.95871, 40.73184 ] } },
{ "type": "Feature", "properties": { "name": "Renew Queens", "category": "community_center", "address": "47-20 11th St", "city": "New York", "zip": "11101", "state": "NY", "confidence": 0.93 }, "geometry": { "type": "Point", "coordinates": [ -73.95125, 40.74449 ] } },
{ "type": "Feature", "properties": { "name": "Dutch Kills Green", "category": "community_center", "address": "40-23 24th St", "city": "Long Island City", "zip": "11101", "state": "NY", "confidence": 0.86 }, "geometry": { "type": "Point", "coordinates": [ -73.941709, 40.751267 ] } },
{ "type": "Feature", "properties": { "name": "Chabad Upper East Side", "category": "community_center", "address": "419 E 77th St", "city": "New York", "zip": "10075", "state": "NY", "confidence": 0.99 }, "geometry": { "type": "Point", "coordinates": [ -73.952857, 40.770827 ] } },
{ "type": "Feature", "properties": { "name": "Marlene Meyerson JCC Manhattan", "category": "community_center", "address": "334 Amsterdam Ave", "city": "New York", "zip": "10023", "state": "NY", "confidence": 0.99 }, "geometry": { "type": "Point", "coordinates": [ -73.9803018, 40.7811038 ] } },
{ "type": "Feature", "properties": { "name": "Jewish Center", "category": "community_center", "address": "131 W 86th St", "city": "New York", "zip": "10024", "state": "NY", "confidence": 0.99 }, "geometry": { "type": "Point", "coordinates": [ -73.97331, 40.78714 ] } },
{ "type": "Feature", "properties": { "name": "Chabad of the West Side", "category": "community_center", "address": "166 W 97th St", "city": "New York", "zip": "10025", "state": "NY", "confidence": 0.99 }, "geometry": { "type": "Point", "coordinates": [ -73.9695497, 40.7944492 ] } },
{ "type": "Feature", "properties": { "name": "Franciscan Community Center", "category": "community_center", "address": "214 W 97th St", "city": "New York", "zip": "10025", "state": "NY", "confidence": 0.98 }, "geometry": { "type": "Point", "coordinates": [ -73.9705, 40.79488 ] } },
{ "type": "Feature", "properties": { "name": "SCAN Johnson Cornerstone Community Center", "category": "community_center", "address": "1833 Lexington Ave", "city": "New York", "zip": "10029", "state": "NY", "confidence": 0.95 }, "geometry": { "type": "Point", "coordinates": [ -73.9423329, 40.7966444 ] } },
{ "type": "Feature", "properties": { "name": "PSS King Towers Center", "category": "community_center", "address": "50 Lenox Ave", "city": "New York", "zip": "10026", "state": "NY", "confidence": 0.98 }, "geometry": { "type": "Point", "coordinates": [ -73.9492111, 40.7997017 ] } },
{ "type": "Feature", "properties": { "name": "14th Street Y", "category": "community_center", "address": "344 E 14th St", "city": "New York", "zip": "10003", "state": "NY", "confidence": 0.99 }, "geometry": { "type": "Point", "coordinates": [ -73.983218, 40.731349 ] } },
{ "type": "Feature", "properties": { "name": "Civic Hall", "category": "community_center", "address": "124 E 14th St", "city": "New York", "zip": "10003", "state": "NY", "confidence": 0.89 }, "geometry": { "type": "Point", "coordinates": [ -73.98877, 40.73363 ] } },
{ "type": "Feature", "properties": { "name": "Chabad Center for Jewish Discovery", "category": "community_center", "address": "121 W 19th St", "city": "New York", "zip": "10011", "state": "NY", "confidence": 0.98 }, "geometry": { "type": "Point", "coordinates": [ -73.995556, 40.741079 ] } },
{ "type": "Feature", "properties": { "name": "Oasis Community Pride Center", "category": "community_center", "address": "24 W 25th St", "city": "New York", "zip": "10010", "state": "NY", "confidence": 0.97 }, "geometry": { "type": "Point", "coordinates": [ -73.99324, 40.74772 ] } },
{ "type": "Feature", "properties": { "name": "Congregation Beit Simchat Torah - CBST", "category": "community_center", "address": "130 W 30th St", "city": "New York", "zip": "10001", "state": "NY", "confidence": 1.0 }, "geometry": { "type": "Point", "coordinates": [ -73.99109, 40.74779 ] } },
{ "type": "Feature", "properties": { "name": "xixi", "category": "community_center", "address": "41 W 36th St", "city": "New York", "zip": "10018", "state": "NY", "confidence": 0.95 }, "geometry": { "type": "Point", "coordinates": [ -73.98548, 40.75061 ] } },
{ "type": "Feature", "properties": { "name": "NYC Dhamma House", "category": "community_center", "address": "247 W 38th St", "city": "New York", "zip": "10018", "state": "NY", "confidence": 0.87 }, "geometry": { "type": "Point", "coordinates": [ -73.99036, 40.754439 ] } },
{ "type": "Feature", "properties": { "name": "Lincoln Square Neighborhood Center", "category": "community_center", "address": "250 W 65th St", "city": "New York", "zip": "10023", "state": "NY", "confidence": 0.99 }, "geometry": { "type": "Point", "coordinates": [ -73.98712, 40.77492 ] } },
{ "type": "Feature", "properties": { "name": "Bayview Community Center", "category": "community_center", "address": "5955 Shore Pkwy", "city": "Brooklyn", "zip": "11236", "state": "NY", "confidence": 0.89 }, "geometry": { "type": "Point", "coordinates": [ -73.88498, 40.63233 ] } },
{ "type": "Feature", "properties": { "name": "Brooklyn Developmental Center", "category": "community_center", "address": "888 Fountain Ave", "city": "Brooklyn", "zip": "11239", "state": "NY", "confidence": 0.82 }, "geometry": { "type": "Point", "coordinates": [ -73.8655, 40.656057 ] } },
{ "type": "Feature", "properties": { "name": "Penn Wortman Community Center", "category": "community_center", "address": "895 Pennsylvania Ave", "city": "Brooklyn", "zip": "11207", "state": "NY", "confidence": 0.98 }, "geometry": { "type": "Point", "coordinates": [ -73.8881105, 40.6561153 ] } },
{ "type": "Feature", "properties": { "name": "Prince Joshua Avitto Community Center", "category": "community_center", "address": "876 Schenck Ave", "city": "Brooklyn", "zip": "11207", "state": "NY", "confidence": 0.93 }, "geometry": { "type": "Point", "coordinates": [ -73.8822551, 40.6571459 ] } },
{ "type": "Feature", "properties": { "name": "Tilden Houses Community Center", "category": "community_center", "address": "630 Mother Gaston Blvd", "city": "Brooklyn", "zip": "11212", "state": "NY", "confidence": 0.91 }, "geometry": { "type": "Point", "coordinates": [ -73.905613, 40.663412 ] } },
{ "type": "Feature", "properties": { "name": "United Community Centers", "category": "community_center", "address": "613 New Lots Ave", "city": "New York", "zip": "11207", "state": "NY", "confidence": 0.96 }, "geometry": { "type": "Point", "coordinates": [ -73.8867, 40.6649 ] } },
{ "type": "Feature", "properties": { "name": "Van Dyke Community Center", "category": "community_center", "address": "392 Blake Ave", "city": "Brooklyn", "zip": "11212", "state": "NY", "confidence": 0.99 }, "geometry": { "type": "Point", "coordinates": [ -73.9045419, 40.6660447 ] } },
{ "type": "Feature", "properties": { "name": "The Greg Jackson Center for Brownsville", "category": "community_center", "address": "519 Rockaway Ave", "city": "Brooklyn", "zip": "11212", "state": "NY", "confidence": 0.97 }, "geometry": { "type": "Point", "coordinates": [ -73.909952, 40.667501 ] } },
{ "type": "Feature", "properties": { "name": "NYPD Community Center at 127 Penn", "category": "community_center", "address": "127 Pennsylvania Ave", "city": "Brooklyn", "zip": "11207", "state": "NY", "confidence": 0.97 }, "geometry": { "type": "Point", "coordinates": [ -73.89633, 40.67465 ] } },
{ "type": "Feature", "properties": { "name": "Saratoga Village", "category": "community_center", "address": "33 Saratoga Ave", "city": "Brooklyn", "zip": "11233", "state": "NY", "confidence": 0.87 }, "geometry": { "type": "Point", "coordinates": [ -73.9174193, 40.685892 ] } },
{ "type": "Feature", "properties": { "name": "Rockaway Boulevard Senior Citizen Center", "category": "community_center", "address": "123-10 143rd St", "city": "Jamaica", "zip": "11436", "state": "NY", "confidence": 0.83 }, "geometry": { "type": "Point", "coordinates": [ -73.796147, 40.674333 ] } },
{ "type": "Feature", "properties": { "name": "Edward Byrne Center", "category": "community_center", "address": "11625 Guy R Brewer Blvd", "city": "Jamaica", "zip": "11434", "state": "NY", "confidence": 0.94 }, "geometry": { "type": "Point", "coordinates": [ -73.783102, 40.685336 ] } },
{ "type": "Feature", "properties": { "name": "Ozone Park Senior Center", "category": "community_center", "address": "103-12 101st Ave", "city": "Ozone Park", "zip": "11416", "state": "NY", "confidence": 0.97 }, "geometry": { "type": "Point", "coordinates": [ -73.839615, 40.685927 ] } },
{ "type": "Feature", "properties": { "name": "Robert Ross Johnson Family Center", "category": "community_center", "address": "172-17 Linden Blvd", "city": "New York", "zip": "11434", "state": "NY", "confidence": 0.89 }, "geometry": { "type": "Point", "coordinates": [ -73.7779627, 40.6922283 ] } },
{ "type": "Feature", "properties": { "name": "South Jamaica Community Center", "category": "community_center", "address": "109-04 160th St", "city": "New York", "zip": "11433", "state": "NY", "confidence": 0.87 }, "geometry": { "type": "Point", "coordinates": [ -73.791478, 40.6929665 ] } },
{ "type": "Feature", "properties": { "name": "Bosnian Community Center, Richmond Hill, NY", "category": "community_center", "address": "114-07 91st Ave", "city": "New York", "zip": "11418", "state": "NY", "confidence": 0.96 }, "geometry": { "type": "Point", "coordinates": [ -73.8329399, 40.6948415 ] } },
{ "type": "Feature", "properties": { "name": "Alpha Phi Alpha Senior Citizens Center", "category": "community_center", "address": "220-01 Linden Blvd", "city": "Cambria Heights", "zip": "11411", "state": "NY", "confidence": 0.97 }, "geometry": { "type": "Point", "coordinates": [ -73.739862, 40.695186 ] } },
{ "type": "Feature", "properties": { "name": "Crown Heights Central", "category": "community_center", "address": "392 Kingston Ave", "city": "New York", "zip": "11225", "state": "NY", "confidence": 0.87 }, "geometry": { "type": "Point", "coordinates": [ -73.942825, 40.665226 ] } },
{ "type": "Feature", "properties": { "name": "Chabad Lubavitch HQ", "category": "community_center", "address": "770 Eastern Pkwy", "city": "New York", "zip": "11213", "state": "NY", "confidence": 0.97 }, "geometry": { "type": "Point", "coordinates": [ -73.9428109, 40.6689696 ] } },
{ "type": "Feature", "properties": { "name": "Fort Greene Grant Square Neighborhood Center", "category": "community_center", "address": "19 Grant Sq", "city": "New York", "zip": "11216", "state": "NY", "confidence": 0.93 }, "geometry": { "type": "Point", "coordinates": [ -73.952381, 40.676775 ] } },
{ "type": "Feature", "properties": { "name": "Classon Community Fridge", "category": "community_center", "address": "641 Classon Ave", "city": "New York", "zip": "11238", "state": "NY", "confidence": 0.88 }, "geometry": { "type": "Point", "coordinates": [ -73.9586, 40.67856 ] } },
{ "type": "Feature", "properties": { "name": "Grace Agard Neighborhood Center", "category": "community_center", "address": "966 Fulton St", "city": "Brooklyn", "zip": "11238", "state": "NY", "confidence": 0.94 }, "geometry": { "type": "Point", "coordinates": [ -73.962205, 40.682225 ] } },
{ "type": "Feature", "properties": { "name": "JCC Brooklyn Clinton Hill- Preschool and Daycare", "category": "community_center", "address": "309 Grand Ave", "city": "Brooklyn", "zip": "11238", "state": "NY", "confidence": 0.97 }, "geometry": { "type": "Point", "coordinates": [ -73.96217, 40.68676 ] } },
{ "type": "Feature", "properties": { "name": "Taylor Wythe Community Center", "category": "community_center", "address": "80 Clymer St", "city": "Brooklyn", "zip": "11249", "state": "NY", "confidence": 0.89 }, "geometry": { "type": "Point", "coordinates": [ -73.9651346, 40.7047554 ] } },
{ "type": "Feature", "properties": { "name": "Williamsburg Community Center", "category": "community_center", "address": "195 Graham Ave", "city": "Brooklyn", "zip": "11206", "state": "NY", "confidence": 0.88 }, "geometry": { "type": "Point", "coordinates": [ -73.943984, 40.709187 ] } },
{ "type": "Feature", "properties": { "name": "Swinging Sixties Senior Center", "category": "community_center", "address": "211 Ainslie St", "city": "Brooklyn", "zip": "11211", "state": "NY", "confidence": 0.99 }, "geometry": { "type": "Point", "coordinates": [ -73.94556, 40.71306 ] } },
{ "type": "Feature", "properties": { "name": "The Polish & Slavic Center (PSC)", "category": "community_center", "address": "176 Java St", "city": "New York", "zip": "11222", "state": "NY", "confidence": 0.98 }, "geometry": { "type": "Point", "coordinates": [ -73.9534794, 40.7311421 ] } },
{ "type": "Feature", "properties": { "name": "EmblemHealth Neighborhood Care", "category": "community_center", "address": "206-20 Linden Blvd", "city": "New York", "zip": "11411", "state": "NY", "confidence": 0.98 }, "geometry": { "type": "Point", "coordinates": [ -73.7446943, 40.6963129 ] } },
{ "type": "Feature", "properties": { "name": "One Stop Richmond Hill Community Center", "category": "community_center", "address": "11008 Jamaica Ave", "city": "New York", "zip": "11418", "state": "NY", "confidence": 0.93 }, "geometry": { "type": "Point", "coordinates": [ -73.8376707, 40.6963294 ] } },
{ "type": "Feature", "properties": { "name": "Greater Nexus", "category": "community_center", "address": "89-14 Parsons Blvd", "city": "New York", "zip": "11432", "state": "NY", "confidence": 0.97 }, "geometry": { "type": "Point", "coordinates": [ -73.8017314, 40.7052878 ] } },
{ "type": "Feature", "properties": { "name": "Briarwood Jewish Centr", "category": "community_center", "address": "13906 86th Ave", "city": "Jamaica", "zip": "11435", "state": "NY", "confidence": 0.89 }, "geometry": { "type": "Point", "coordinates": [ -73.816478, 40.70783 ] } },
{ "type": "Feature", "properties": { "name": "Anshe Sholom Chabad JCC", "category": "community_center", "address": "82-52 Abingdon Rd", "city": "New York", "zip": "11415", "state": "NY", "confidence": 0.99 }, "geometry": { "type": "Point", "coordinates": [ -73.834377, 40.708125 ] } },
{ "type": "Feature", "properties": { "name": "Kew Gardens Community Center-QCH", "category": "community_center", "address": "80-02 Kew Gardens Rd", "city": "New York", "zip": "11415", "state": "NY", "confidence": 0.96 }, "geometry": { "type": "Point", "coordinates": [ -73.8312228, 40.7135533 ] } },
{ "type": "Feature", "properties": { "name": "Bukharian Jewish Community Center", "category": "community_center", "address": "106-16 70th Ave", "city": "New York", "zip": "11375", "state": "NY", "confidence": 0.99 }, "geometry": { "type": "Point", "coordinates": [ -73.84631, 40.7212699 ] } },
{ "type": "Feature", "properties": { "name": "Jewish Center of Kew Gardens Hills", "category": "community_center", "address": "71-25 Main St", "city": "Flushing", "zip": "11367", "state": "NY", "confidence": 0.97 }, "geometry": { "type": "Point", "coordinates": [ -73.82173, 40.72745 ] } },
{ "type": "Feature", "properties": { "name": "Bukharian Jewish Congregation of Jamaica Estates", "category": "community_center", "address": "80-14 Chevy Chase St", "city": "Jamaica", "zip": "11432", "state": "NY", "confidence": 0.98 }, "geometry": { "type": "Point", "coordinates": [ -73.7835, 40.72781 ] } },
{ "type": "Feature", "properties": { "name": "Rego Park Jewish Center", "category": "community_center", "address": "97-30 Queens Blvd", "city": "New York", "zip": "11374", "state": "NY", "confidence": 0.99 }, "geometry": { "type": "Point", "coordinates": [ -73.859381, 40.72851 ] } },
{ "type": "Feature", "properties": { "name": "Hope Gardens Community Center", "category": "community_center", "address": "422 Central Ave", "city": "Brooklyn", "zip": "11221", "state": "NY", "confidence": 0.98 }, "geometry": { "type": "Point", "coordinates": [ -73.916724, 40.6930719 ] } },
{ "type": "Feature", "properties": { "name": "Maria Lawton Neighborhood Senior Center", "category": "community_center", "address": "400 Hart St", "city": "New York", "zip": "11206", "state": "NY", "confidence": 0.86 }, "geometry": { "type": "Point", "coordinates": [ -73.934716, 40.6944131 ] } },
{ "type": "Feature", "properties": { "name": "Collective Focus", "category": "community_center", "address": "1046 Broadway", "city": "Brooklyn", "zip": "11221", "state": "NY", "confidence": 0.95 }, "geometry": { "type": "Point", "coordinates": [ -73.9322344, 40.6953844 ] } },
{ "type": "Feature", "properties": { "name": "Mayday Space", "category": "community_center", "address": "176 St Nicholas Ave", "city": "New York", "zip": "11237", "state": "NY", "confidence": 0.98 }, "geometry": { "type": "Point", "coordinates": [ -73.9161682, 40.7041016 ] } },
{ "type": "Feature", "properties": { "name": "Maspeth Town Hall Inc", "category": "community_center", "address": "5337 72nd St", "city": "Maspeth", "zip": "11378", "state": "NY", "confidence": 0.99 }, "geometry": { "type": "Point", "coordinates": [ -73.892147, 40.730406 ] } },
{ "type": "Feature", "properties": { "name": "Sunnyside Community Services", "category": "community_center", "address": "4331 39th St", "city": "Sunnyside", "zip": "11104", "state": "NY", "confidence": 1.0 }, "geometry": { "type": "Point", "coordinates": [ -73.925619, 40.745059 ] } },
{ "type": "Feature", "properties": { "name": "St Sebastian's Parish Center", "category": "community_center", "address": "3960 57th St", "city": "Woodside", "zip": "11377", "state": "NY", "confidence": 0.99 }, "geometry": { "type": "Point", "coordinates": [ -73.9071391, 40.7465551 ] } },
{ "type": "Feature", "properties": { "name": "Catherine M Sheridan Center For Senior Citizens", "category": "community_center", "address": "3524 83rd St", "city": "Jackson Heights", "zip": "11372", "state": "NY", "confidence": 0.8 }, "geometry": { "type": "Point", "coordinates": [ -73.8838101, 40.7512562 ] } },
{ "type": "Feature", "properties": { "name": "East River Community Center", "category": "community_center", "address": "404 E 105th St", "city": "New York", "zip": "10029", "state": "NY", "confidence": 0.83 }, "geometry": { "type": "Point", "coordinates": [ -73.9404562, 40.7878255 ] } },
{ "type": "Feature", "properties": { "name": "Beacon Community Center J H S 45", "category": "community_center", "address": "2351 1st Ave", "city": "New York", "zip": "10035", "state": "NY", "confidence": 0.96 }, "geometry": { "type": "Point", "coordinates": [ -73.933663, 40.799191 ] } },
{ "type": "Feature", "properties": { "name": "Fresh Meadows Jewish Center", "category": "community_center", "address": "58-45 193rd St", "city": "Fresh Meadows", "zip": "11365", "state": "NY", "confidence": 0.92 }, "geometry": { "type": "Point", "coordinates": [ -73.782913, 40.742497 ] } },
{ "type": "Feature", "properties": { "name": "EmblemHealth Neighborhood Care", "category": "community_center", "address": "41-61 Kissena Blvd", "city": "New York", "zip": "11355", "state": "NY", "confidence": 0.99 }, "geometry": { "type": "Point", "coordinates": [ -73.8265204, 40.7574515 ] } },
{ "type": "Feature", "properties": { "name": "Commonpoint Queens Sam Field Center", "category": "community_center", "address": "58-20 Little Neck Pkwy", "city": "Little Neck", "zip": "11362", "state": "NY", "confidence": 0.99 }, "geometry": { "type": "Point", "coordinates": [ -73.7232906, 40.7609375 ] } },
{ "type": "Feature", "properties": { "name": "People of Color Worship & Reflection Group", "category": "community_center", "address": "137-16 Northern Blvd", "city": "New York", "zip": "11354", "state": "NY", "confidence": 0.89 }, "geometry": { "type": "Point", "coordinates": [ -73.830677, 40.7631123 ] } },
{ "type": "Feature", "properties": { "name": "Commonpoint Queens Bay Terrace Center", "category": "community_center", "address": "212-00 23rd Ave", "city": "Bayside", "zip": "11360", "state": "NY", "confidence": 1.0 }, "geometry": { "type": "Point", "coordinates": [ -73.7783398, 40.7806664 ] } },
{ "type": "Feature", "properties": { "name": "Castle Hill Community Center", "category": "community_center", "address": "625 Castle Hill Ave", "city": "Bronx", "zip": "10473", "state": "NY", "confidence": 0.95 }, "geometry": { "type": "Point", "coordinates": [ -73.84882, 40.8196 ] } },
{ "type": "Feature", "properties": { "name": "Mechler Hall Senior Center", "category": "community_center", "address": "2158 Watson Ave", "city": "Bronx", "zip": "10472", "state": "NY", "confidence": 0.84 }, "geometry": { "type": "Point", "coordinates": [ -73.851345, 40.829424 ] } },
{ "type": "Feature", "properties": { "name": "Morris Park Community Association", "category": "community_center", "address": "1824 Bronxdale Ave", "city": "Bronx", "zip": "10462", "state": "NY", "confidence": 0.97 }, "geometry": { "type": "Point", "coordinates": [ -73.8596416, 40.8475696 ] } },
{ "type": "Feature", "properties": { "name": "Bronx Jewish Center", "category": "community_center", "address": "1969 Haight Ave", "city": "New York", "zip": "10461", "state": "NY", "confidence": 0.99 }, "geometry": { "type": "Point", "coordinates": [ -73.85595, 40.853 ] } },
{ "type": "Feature", "properties": { "name": "Axis Project", "category": "community_center", "address": "2162 3rd Ave", "city": "New York", "zip": "10035", "state": "NY", "confidence": 0.92 }, "geometry": { "type": "Point", "coordinates": [ -73.93915, 40.79946 ] } },
{ "type": "Feature", "properties": { "name": "Accessibility Resource Center at Hostos Community College", "category": "community_center", "address": "101 Grand Concourse", "city": "New York", "zip": "10451", "state": "NY", "confidence": 0.87 }, "geometry": { "type": "Point", "coordinates": [ -73.9303642, 40.8135738 ] } },
{ "type": "Feature", "properties": { "name": "Mercy Center Bronx", "category": "community_center", "address": "377 E 145th St", "city": "Bronx", "zip": "10454", "state": "NY", "confidence": 0.98 }, "geometry": { "type": "Point", "coordinates": [ -73.920141, 40.813911 ] } },
{ "type": "Feature", "properties": { "name": "Frederick Samuel Community Center", "category": "community_center", "address": "669 Malcolm X Blvd", "city": "New York", "zip": "10037", "state": "NY", "confidence": 0.91 }, "geometry": { "type": "Point", "coordinates": [ -73.93717, 40.81961 ] } },
{ "type": "Feature", "properties": { "name": "Sonia Sotomayor Community Center", "category": "community_center", "address": "1000 Rosedale Ave", "city": "Bronx", "zip": "10472", "state": "NY", "confidence": 0.93 }, "geometry": { "type": "Point", "coordinates": [ -73.86747, 40.82552 ] } },
{ "type": "Feature", "properties": { "name": "Casa Boricua Senior Center", "category": "community_center", "address": "910 E 172nd St", "city": "Bronx", "zip": "10460", "state": "NY", "confidence": 0.93 }, "geometry": { "type": "Point", "coordinates": [ -73.89011, 40.83407 ] } },
{ "type": "Feature", "properties": { "name": "New Settlement Community Center", "category": "community_center", "address": "1501 Jerome Ave", "city": "New York", "zip": "10452", "state": "NY", "confidence": 0.99 }, "geometry": { "type": "Point", "coordinates": [ -73.916326, 40.842634 ] } },
{ "type": "Feature", "properties": { "name": "Mary Mitchell Family and Youth Center", "category": "community_center", "address": "2007 Mapes Ave", "city": "Bronx", "zip": "10460", "state": "NY", "confidence": 0.99 }, "geometry": { "type": "Point", "coordinates": [ -73.8872528, 40.8448103 ] } },
{ "type": "Feature", "properties": { "name": "Brady Court Community Center - Bronx, NY", "category": "community_center", "address": "768 Brady Ave", "city": "Bronx", "zip": "10462", "state": "NY", "confidence": 0.97 }, "geometry": { "type": "Point", "coordinates": [ -73.86572, 40.85133 ] } },
{ "type": "Feature", "properties": { "name": "Davidson Community Center", "category": "community_center", "address": "2038 Davidson Ave", "city": "Bronx", "zip": "10453", "state": "NY", "confidence": 0.99 }, "geometry": { "type": "Point", "coordinates": [ -73.90856, 40.8536 ] } },
{ "type": "Feature", "properties": { "name": "JCC Harlem", "category": "community_center", "address": "318 W 118th St", "city": "New York", "zip": "10026", "state": "NY", "confidence": 0.98 }, "geometry": { "type": "Point", "coordinates": [ -73.95555, 40.80603 ] } },
{ "type": "Feature", "properties": { "name": "Harlem PAL", "category": "community_center", "address": "441 Manhattan Ave", "city": "New York", "zip": "10026", "state": "NY", "confidence": 0.8 }, "geometry": { "type": "Point", "coordinates": [ -73.9557612, 40.8069389 ] } },
{ "type": "Feature", "properties": { "name": "Jackie Robinson Senior Center", "category": "community_center", "address": "1301 Amsterdam Ave", "city": "New York", "zip": "10027", "state": "NY", "confidence": 0.98 }, "geometry": { "type": "Point", "coordinates": [ -73.956537, 40.811864 ] } },
{ "type": "Feature", "properties": { "name": "Drew Hamilton Community Center", "category": "community_center", "address": "220 W 143rd St", "city": "New York", "zip": "10030", "state": "NY", "confidence": 0.89 }, "geometry": { "type": "Point", "coordinates": [ -73.941168, 40.820535 ] } },
{ "type": "Feature", "properties": { "name": "Silicon Harlem", "category": "community_center", "address": "2785 Frederick Douglass Blvd", "city": "New York", "zip": "10039", "state": "NY", "confidence": 0.83 }, "geometry": { "type": "Point", "coordinates": [ -73.940847, 40.824702 ] } },
{ "type": "Feature", "properties": { "name": "The Beis Community", "category": "community_center", "address": "587 Fort Washington Ave", "city": "New York", "zip": "10033", "state": "NY", "confidence": 0.95 }, "geometry": { "type": "Point", "coordinates": [ -73.93715, 40.85481 ] } },
{ "type": "Feature", "properties": { "name": "Daugavas Vanagi Latvian Assn New York", "category": "community_center", "address": "115 W 183rd St", "city": "Bronx", "zip": "10453", "state": "NY", "confidence": 0.86 }, "geometry": { "type": "Point", "coordinates": [ -73.9098099, 40.860328 ] } },
{ "type": "Feature", "properties": { "name": "Dyckman Community Center", "category": "community_center", "address": "3782 10th Ave", "city": "New York", "zip": "10034", "state": "NY", "confidence": 0.91 }, "geometry": { "type": "Point", "coordinates": [ -73.921558, 40.861782 ] } },
{ "type": "Feature", "properties": { "name": "Kingsbridge Heights Community Center", "category": "community_center", "address": "3101 Kingsbridge Ter", "city": "New York", "zip": "10463", "state": "NY", "confidence": 0.99 }, "geometry": { "type": "Point", "coordinates": [ -73.90055, 40.87751 ] } },
{ "type": "Feature", "properties": { "name": "Fort Independence Cmnty Center", "category": "community_center", "address": "3350 Bailey Ave", "city": "Bronx", "zip": "10463", "state": "NY", "confidence": 0.88 }, "geometry": { "type": "Point", "coordinates": [ -73.900166, 40.879743 ] } },
{ "type": "Feature", "properties": { "name": "MMCC Mosholu Montefiore Community Center", "category": "community_center", "address": "3450 Dekalb Ave", "city": "New York", "zip": "10467", "state": "NY", "confidence": 0.84 }, "geometry": { "type": "Point", "coordinates": [ -73.880544, 40.8819449 ] } },
{ "type": "Feature", "properties": { "name": "Riverdale YM-YWHA", "category": "community_center", "address": "5625 Arlington Ave", "city": "Bronx", "zip": "10471", "state": "NY", "confidence": 0.96 }, "geometry": { "type": "Point", "coordinates": [ -73.9083182, 40.9050343 ] } },
{ "type": "Feature", "properties": { "name": "Young Israel of Pelham Parkway Jewish Center", "category": "community_center", "address": "900 Pelham Pkwy S", "city": "New York", "zip": "10462", "state": "NY", "confidence": 0.95 }, "geometry": { "type": "Point", "coordinates": [ -73.86169, 40.85655 ] } },
{ "type": "Feature", "properties": { "name": "Bronx House", "category": "community_center", "address": "990 Pelham Pkwy S", "city": "Bronx", "zip": "10462", "state": "NY", "confidence": 0.95 }, "geometry": { "type": "Point", "coordinates": [ -73.86041, 40.85664 ] } },
{ "type": "Feature", "properties": { "name": "Bartow Community Center", "category": "community_center", "address": "2049 Bartow Ave", "city": "Bronx", "zip": "10475", "state": "NY", "confidence": 0.94 }, "geometry": { "type": "Point", "coordinates": [ -73.8288538, 40.8704915 ] } },
{ "type": "Feature", "properties": { "name": "Dreiser Loop Community Center", "category": "community_center", "address": "145 Dreiser Loop", "city": "Bronx", "zip": "10475", "state": "NY", "confidence": 0.97 }, "geometry": { "type": "Point", "coordinates": [ -73.8295671, 40.8765693 ] } },
{ "type": "Feature", "properties": { "name": "Edenwald Community Center", "category": "community_center", "address": "1180 Grenada Pl", "city": "Bronx", "zip": "10466", "state": "NY", "confidence": 0.92 }, "geometry": { "type": "Point", "coordinates": [ -73.84494, 40.88594 ] } }
]
}
