{
"type": "FeatureCollection",
"name": "nyc-child_care_and_day_care",
"crs": { "type": "name", "properties": { "name": "urn:ogc:def:crs:OGC:1.3:CRS84" } },
"features": [
{ "type": "Feature", "properties": { "name": "Little Missy's Daycare 1", "category": "child_care_and_day_care", "address": "114 E 29th St", "city": "Brooklyn", "zip": "11226", "state": "NY", "confidence": 0.83 }, "geometry": { "type": "Point", "coordinates": [ -73.9503174, 40.6464233 ] } },
{ "type": "Feature", "properties": { "name": "Petits Poussins Too", "category": "child_care_and_day_care", "address": "2235 Frederick Douglass Blvd", "city": "New York", "zip": "10027", "state": "NY", "confidence": 0.83 }, "geometry": { "type": "Point", "coordinates": [ -73.953538, 40.807421 ] } },
{ "type": "Feature", "properties": { "name": "Family Day Care Xp", "category": "child_care_and_day_care", "address": "975 Walton Ave Apt 2kn", "city": "Bronx", "zip": "10452", "state": "NY", "confidence": 0.84 }, "geometry": { "type": "Point", "coordinates": [ -73.922672, 40.829618 ] } },
{ "type": "Feature", "properties": { "name": "Happy Hippo Group Family WeeCare", "category": "child_care_and_day_care", "address": "1730 Popham Ave Apt 2C", "city": "Bronx", "zip": "10453", "state": "NY", "confidence": 0.82 }, "geometry": { "type": "Point", "coordinates": [ -73.919607, 40.850655 ] } },
{ "type": "Feature", "properties": { "name": "Rainbow Rhymes Learning Center", "category": "child_care_and_day_care", "address": "4041 Bruner Ave", "city": "Bronx", "zip": "10466", "state": "NY", "confidence": 0.8 }, "geometry": { "type": "Point", "coordinates": [ -73.8469499, 40.890884 ] } }
]
}
